place_name,place_country,lat,lon
Samarkand,Uzbekistan,39.652451,66.970139
Pompeii,Italy,40.746157,14.498934
Inverness,United Kingdom,57.477772,-4.224721
Yellowstone National Park,United States of America,44.446037,-110.587349
Madurai,India,9.939093,78.121719
